City_ID,City,Country,Lat,Lng,Max Temp,Humidity,Cloudiness,Wind Speed,Date
0,Hamilton,US,39.18,-84.53,70.0,77,90,9.17,2020-09-11 23:55:41
1,Port Hedland,AU,-20.32,118.57,75.2,60,0,5.82,2020-09-11 23:55:41
2,Punta Arenas,CL,-53.15,-70.92,42.8,70,90,13.87,2020-09-11 23:52:30
3,Kahului,US,20.89,-156.47,91.4,43,40,24.16,2020-09-11 23:52:01
4,Conde,BR,-7.26,-34.91,75.2,78,40,8.05,2020-09-11 23:55:42
5,Manavgat,TR,36.79,31.44,80.6,74,40,4.7,2020-09-11 23:55:43
6,Mataura,NZ,-46.19,168.86,54.0,64,99,4.0,2020-09-11 23:55:43
7,Surman,LY,32.76,12.57,80.94,76,12,10.58,2020-09-11 23:55:43
8,Khatanga,RU,71.97,102.5,48.74,61,94,7.7,2020-09-11 23:55:44
9,Brae,GB,60.4,-1.35,51.8,81,40,29.97,2020-09-11 23:55:44
10,Cape Town,ZA,-33.93,18.42,55.4,82,94,3.36,2020-09-11 23:55:44
11,Taywarah,AF,33.35,64.42,42.46,56,0,6.98,2020-09-11 23:55:45
12,Duma,CN,34.77,108.14,66.2,93,21,11.18,2020-09-11 23:55:45
13,Roura,GF,4.73,-52.33,80.6,83,50,6.93,2020-09-11 23:55:45
14,Norman Wells,CA,65.28,-126.83,51.8,50,75,8.05,2020-09-11 23:55:46
15,Arraial Do Cabo,BR,-22.97,-42.03,72.59,86,7,8.77,2020-09-11 23:55:46
16,Ushuaia,AR,-54.8,-68.3,41.0,65,20,8.05,2020-09-11 23:51:34
17,Aranos,NA,-24.13,19.12,64.35,27,0,15.08,2020-09-11 23:55:46
18,Victoria,HK,22.29,114.16,84.0,85,95,5.39,2020-09-11 23:55:47
19,Albany,US,42.6,-73.97,60.01,79,0,4.61,2020-09-11 23:52:28
20,Salinas,US,36.68,-121.66,66.99,72,1,10.29,2020-09-11 23:52:50
21,Rikitea,PF,-23.12,-134.97,73.8,86,63,11.54,2020-09-11 23:55:47
22,Barrow,US,71.29,-156.79,35.6,74,90,14.99,2020-09-11 23:52:33
23,Klaksvik,FO,62.23,-6.59,48.2,81,23,18.34,2020-09-11 23:55:47
24,Petrozavodsk,RU,61.78,34.35,42.8,100,70,4.47,2020-09-11 23:55:48
25,Jamestown,US,42.1,-79.24,60.01,77,1,9.17,2020-09-11 23:55:21
26,Puerto Ayora,EC,-0.74,-90.35,68.0,90,83,7.0,2020-09-11 23:55:48
27,Torbay,CA,47.67,-52.73,51.01,93,90,13.87,2020-09-11 23:55:49
28,Svetlaya,RU,46.54,138.33,59.81,63,0,4.88,2020-09-11 23:55:49
29,Itaituba,BR,-4.28,-55.98,82.15,54,46,1.43,2020-09-11 23:55:49
30,Beloha,MG,-25.17,45.05,65.17,94,0,2.64,2020-09-11 23:55:49
31,Isiro,CD,2.77,27.62,66.85,99,100,1.68,2020-09-11 23:55:50
32,Craig,US,40.52,-107.55,66.2,25,1,17.22,2020-09-11 23:53:07
33,Atuona,PF,-9.8,-139.03,79.16,75,2,20.47,2020-09-11 23:55:50
34,Candido Mendes,BR,-1.45,-45.72,76.48,85,86,4.56,2020-09-11 23:55:51
35,Nikolskoye,RU,59.7,30.79,48.99,87,65,2.24,2020-09-11 23:55:51
36,Yumen,CN,40.28,97.2,49.93,47,0,9.31,2020-09-11 23:55:52
37,East London,ZA,-33.02,27.91,66.61,84,97,21.09,2020-09-11 23:54:16
38,San Patricio,MX,19.22,-104.7,86.0,74,75,11.41,2020-09-11 23:55:52
39,Hermanus,ZA,-34.42,19.23,60.01,87,98,8.01,2020-09-11 23:55:53
40,Kabakovo,RU,54.54,56.15,50.0,100,40,6.71,2020-09-11 23:55:53
41,Bengkulu,ID,-3.8,102.27,75.13,85,82,3.91,2020-09-11 23:55:54
42,Port Elizabeth,ZA,-33.92,25.57,62.6,100,90,18.34,2020-09-11 23:52:37
43,Mar Del Plata,AR,-38.0,-57.56,48.0,61,50,3.36,2020-09-11 23:55:55
44,Garowe,SO,8.41,48.48,81.12,46,86,15.7,2020-09-11 23:55:55
45,Tahoua,NE,14.89,5.27,84.54,58,76,10.11,2020-09-11 23:55:55
46,Maniitsoq,GL,65.42,-52.9,37.2,75,1,7.7,2020-09-11 23:55:56
47,Vaini,TO,-21.2,-175.2,75.2,78,40,11.41,2020-09-11 23:55:56
48,Kavieng,PG,-2.57,150.8,84.74,68,5,8.1,2020-09-11 23:55:56
49,Carballo,ES,43.21,-8.69,66.0,88,78,1.12,2020-09-11 23:55:56
50,Mount Gambier,AU,-37.83,140.77,57.2,93,90,8.05,2020-09-11 23:55:57
51,Kayseri,TR,38.74,35.5,68.0,45,20,10.29,2020-09-11 23:55:57
52,Pisco,PE,-13.7,-76.22,62.6,72,17,12.75,2020-09-11 23:55:57
53,Paamiut,GL,61.99,-49.67,38.8,68,0,10.94,2020-09-11 23:55:58
54,Busselton,AU,-33.65,115.33,46.99,84,20,3.09,2020-09-11 23:55:58
55,Mehamn,NO,71.04,27.85,44.51,73,32,4.81,2020-09-11 23:55:58
56,Avarua,CK,-21.21,-159.78,80.6,83,67,6.93,2020-09-11 23:55:59
57,Haines Junction,CA,60.75,-137.51,49.24,48,48,3.91,2020-09-11 23:56:00
58,Zhangye,CN,38.93,100.45,59.79,41,89,9.15,2020-09-11 23:56:00
59,Maragogi,BR,-9.01,-35.22,73.06,79,1,11.36,2020-09-11 23:56:00
60,Narsaq,GL,60.92,-46.05,39.2,38,0,6.93,2020-09-11 23:56:01
61,Tasiilaq,GL,65.61,-37.64,33.8,80,100,4.7,2020-09-11 23:56:01
62,Hilo,US,19.73,-155.09,86.0,58,1,6.93,2020-09-11 23:51:20
63,Butaritari,KI,3.07,172.79,82.33,70,27,11.45,2020-09-11 23:56:02
64,Cootamundra,AU,-34.65,148.03,62.01,62,36,5.01,2020-09-11 23:56:02
65,Tahara,JP,34.67,137.27,82.99,52,21,7.0,2020-09-11 23:56:03
66,Ixtapa,MX,20.7,-105.2,87.8,70,75,11.41,2020-09-11 23:56:03
67,Castro,BR,-24.79,-50.01,67.06,72,100,2.98,2020-09-11 23:56:04
68,Qaanaaq,GL,77.48,-69.36,29.98,94,100,7.81,2020-09-11 23:56:04
69,Cabo San Lucas,MX,22.89,-109.91,86.0,70,75,11.41,2020-09-11 23:56:05
70,Kavaratti,IN,10.57,72.64,81.34,79,98,19.84,2020-09-11 23:56:05
71,Iqaluit,CA,63.75,-68.51,37.4,86,90,3.36,2020-09-11 23:56:05
72,Gimli,CA,50.63,-96.99,68.0,63,0,4.0,2020-09-11 23:53:35
73,Warrington,GB,53.39,-2.58,57.2,93,75,11.41,2020-09-11 23:56:06
74,Kolokani,ML,13.57,-8.03,74.79,88,49,6.49,2020-09-11 23:56:07
75,Northam,GB,51.03,-4.22,60.01,85,98,11.01,2020-09-11 23:56:07
76,Hobart,AU,-42.88,147.33,53.6,66,40,5.82,2020-09-11 23:52:01
77,Saskylakh,RU,71.92,114.08,46.67,72,76,5.08,2020-09-11 23:56:08
78,Ponta Do Sol,PT,32.67,-17.1,73.4,60,40,4.7,2020-09-11 23:56:08
79,Razole,IN,16.48,81.83,76.82,95,98,3.8,2020-09-11 23:56:08
80,Mitu,CO,1.2,-70.17,76.35,81,21,2.57,2020-09-11 23:53:21
81,Isangel,VU,-19.55,169.27,77.0,65,75,9.17,2020-09-11 23:56:09
82,Yellowknife,CA,62.46,-114.35,46.4,93,90,11.41,2020-09-11 23:52:33
83,Kismayo,SO,-0.36,42.55,77.67,81,85,17.11,2020-09-11 23:56:09
84,Bredasdorp,ZA,-34.53,20.04,60.8,87,100,16.11,2020-09-11 23:56:09
85,Dingle,PH,11.0,122.67,81.79,79,98,0.6,2020-09-11 23:56:10
86,Migori,KE,-1.06,34.47,64.38,68,51,6.64,2020-09-11 23:56:10
87,Lorengau,PG,-2.02,147.27,85.21,72,23,10.45,2020-09-11 23:56:10
88,Maltahohe,NA,-24.83,16.98,60.89,29,0,5.68,2020-09-11 23:56:11
89,Provideniya,RU,64.38,-173.3,46.99,67,92,5.97,2020-09-11 23:56:11
90,Salalah,OM,17.02,54.09,80.6,78,75,2.24,2020-09-11 23:56:12
91,Salinopolis,BR,-0.61,-47.36,80.33,80,66,12.5,2020-09-11 23:56:12
92,Mahebourg,MU,-20.41,57.7,69.8,88,40,10.29,2020-09-11 23:56:13
93,Sulangan,PH,11.14,123.72,83.84,70,89,3.91,2020-09-11 23:56:13
94,Esperance,AU,-33.87,121.9,50.0,100,36,6.93,2020-09-11 23:56:14
95,Gaspe,CA,48.83,-64.48,53.6,76,40,5.12,2020-09-11 23:56:14
96,Bluff,NZ,-46.6,168.33,54.0,64,96,4.0,2020-09-11 23:56:14
97,Berlevag,NO,70.86,29.09,46.63,73,13,8.1,2020-09-11 23:56:14
98,Diu,IN,20.71,70.98,79.16,87,100,5.5,2020-09-11 23:56:15
99,Hithadhoo,MV,-0.6,73.08,81.93,75,100,9.66,2020-09-11 23:56:16
100,Beringovskiy,RU,63.05,179.32,48.72,80,94,18.52,2020-09-11 23:56:16
101,Colares,PT,38.8,-9.45,72.0,36,100,6.78,2020-09-11 23:56:16
102,Doha,QA,25.29,51.53,90.0,84,0,3.36,2020-09-11 23:56:17
103,Guerrero Negro,MX,27.98,-114.06,88.61,25,0,13.22,2020-09-11 23:56:17
104,Belaya Gora,RU,68.53,146.42,54.16,52,0,5.46,2020-09-11 23:56:17
105,Chuy,UY,-33.7,-53.46,56.26,91,59,8.95,2020-09-11 23:56:17
106,Vila Franca Do Campo,PT,37.72,-25.43,69.8,83,20,10.29,2020-09-11 23:56:17
107,Kodiak,US,57.79,-152.41,64.4,60,1,6.93,2020-09-11 23:56:17
108,Pacifica,US,37.61,-122.49,73.99,77,1,10.29,2020-09-11 23:52:52
109,Kaitangata,NZ,-46.28,169.85,55.99,53,96,3.0,2020-09-11 23:56:18
110,Zhigansk,RU,66.77,123.37,48.47,92,98,3.47,2020-09-11 23:56:18
111,Belmonte,BR,-15.86,-38.88,75.2,69,20,10.29,2020-09-11 23:56:18
112,Georgetown,MY,5.41,100.34,77.0,94,20,3.04,2020-09-11 23:56:08
113,Sinnamary,GF,5.38,-52.95,79.72,80,25,12.41,2020-09-11 23:56:18
114,Carnarvon,AU,-24.87,113.63,59.0,67,0,14.99,2020-09-11 23:56:19
115,Roebourne,AU,-20.78,117.13,81.9,33,0,16.22,2020-09-11 23:56:19
116,Saint George,US,37.1,-113.58,89.01,9,1,5.82,2020-09-11 23:56:15
117,Sao Joao Da Barra,BR,-21.64,-41.05,73.26,83,0,17.11,2020-09-11 23:56:19
118,Coihaique,CL,-45.58,-72.07,41.0,86,90,8.05,2020-09-11 23:56:20
119,Flinders,AU,-34.58,150.86,64.99,64,2,5.99,2020-09-11 23:56:20
120,Zhanaozen,KZ,43.3,52.8,64.06,44,0,6.15,2020-09-11 23:56:21
121,Elko,US,41.0,-115.5,84.99,4,0,13.0,2020-09-11 23:56:21
122,Chokurdakh,RU,70.63,147.92,52.66,54,0,6.15,2020-09-11 23:56:21
123,Ribeira Grande,PT,38.52,-28.7,71.87,78,10,6.8,2020-09-11 23:56:22
124,Mogwase,ZA,-25.18,27.27,53.37,42,0,1.23,2020-09-11 23:56:22
125,Half Moon Bay,US,37.46,-122.43,77.0,53,90,8.05,2020-09-11 23:56:22
126,Muravlenko,RU,63.79,74.52,49.06,83,74,13.6,2020-09-11 23:56:22
127,Banda Aceh,ID,5.56,95.32,78.64,82,100,10.49,2020-09-11 23:55:04
128,Moron,AR,-34.65,-58.62,59.0,38,75,5.82,2020-09-11 23:54:42
129,Thompson,CA,55.74,-97.86,48.2,93,75,6.93,2020-09-11 23:56:23
130,Hofn,IS,64.25,-15.21,47.82,87,100,0.27,2020-09-11 23:56:23
131,Upernavik,GL,72.79,-56.15,29.98,81,32,8.1,2020-09-11 23:56:24
132,San Blas,MX,21.52,-105.27,80.6,78,90,5.82,2020-09-11 23:56:24
133,Usogorsk,RU,63.41,48.69,45.55,91,90,8.9,2020-09-11 23:56:25
134,Nyurba,RU,63.28,118.33,47.44,82,99,0.36,2020-09-11 23:56:25
135,Cidreira,BR,-30.18,-50.21,64.08,90,53,8.59,2020-09-11 23:56:26
136,Tuktoyaktuk,CA,69.45,-133.04,41.0,80,90,27.51,2020-09-11 23:56:26
137,Hasaki,JP,35.73,140.83,77.0,94,75,10.29,2020-09-11 23:56:26
138,Longyearbyen,SJ,78.22,15.64,39.2,86,75,3.2,2020-09-11 23:56:26
139,Ancud,CL,-41.87,-73.82,48.0,92,99,3.0,2020-09-11 23:56:27
140,Olinda,BR,-8.01,-34.86,78.8,65,75,13.87,2020-09-11 23:56:27
141,Leningradskiy,RU,69.38,178.42,42.84,88,98,4.03,2020-09-11 23:56:27
142,Saint-Augustin,CA,51.23,-58.65,48.29,57,56,7.83,2020-09-11 23:54:47
143,Bethel,US,41.37,-73.41,63.0,82,14,3.67,2020-09-11 23:56:27
144,Northport,US,33.23,-87.58,82.4,78,1,3.11,2020-09-11 23:56:28
145,Leshukonskoye,RU,64.9,45.76,40.39,96,18,4.85,2020-09-11 23:56:28
146,Zaoyang,CN,32.13,112.75,72.39,73,41,2.48,2020-09-11 23:56:28
147,Karmala,IN,18.42,75.2,75.63,87,100,2.71,2020-09-11 23:56:29
148,Garmsar,IR,35.22,52.34,70.92,35,0,5.41,2020-09-11 23:56:29
149,Roald,NO,62.58,6.13,54.0,81,57,18.34,2020-09-11 23:56:29
150,Ogbomosho,NG,8.13,4.25,71.67,97,86,3.71,2020-09-11 23:56:30
151,Sept-Iles,CA,50.2,-66.38,50.0,87,75,6.82,2020-09-11 23:52:03
152,Upington,ZA,-28.45,21.26,77.0,17,0,13.87,2020-09-11 23:56:30
153,Bubaque,GW,11.28,-15.83,78.55,86,100,16.46,2020-09-11 23:56:30
154,Malakal,SS,9.53,31.66,72.23,82,98,0.67,2020-09-11 23:56:30
155,Tera,NE,14.01,0.75,81.54,60,78,12.17,2020-09-11 23:56:31
156,Hambantota,LK,6.12,81.12,78.71,83,99,15.35,2020-09-11 23:56:31
157,Toora-Khem,RU,52.47,96.11,34.86,92,100,3.47,2020-09-11 23:56:31
158,Saint-Philippe,RE,-21.36,55.77,68.0,77,50,3.36,2020-09-11 23:56:31
159,Saint Anthony,US,45.02,-93.22,57.2,71,90,8.05,2020-09-11 23:56:32
160,Wamba,NG,8.93,8.6,72.55,91,50,2.44,2020-09-11 23:56:32
161,Lasa,IT,46.62,10.7,57.2,93,75,2.24,2020-09-11 23:56:32
162,Kviteseid,NO,59.4,8.49,48.0,97,75,4.0,2020-09-11 23:56:33
163,Carutapera,BR,-1.2,-46.02,78.15,82,68,7.43,2020-09-11 23:56:33
164,Puksoozero,RU,62.59,40.61,43.32,97,87,5.82,2020-09-11 23:56:33
165,Kapaa,US,22.08,-159.32,87.8,58,40,13.87,2020-09-11 23:56:33
166,Port Alfred,ZA,-33.59,26.89,65.71,84,95,25.57,2020-09-11 23:56:34
167,Kemijarvi,FI,66.71,27.43,43.12,87,79,8.03,2020-09-11 23:56:35
168,Belyy,RU,55.84,32.94,43.93,94,34,4.56,2020-09-11 23:56:35
169,Itoman,JP,26.12,127.67,84.2,83,75,10.29,2020-09-11 23:56:35
170,Sitka,US,57.05,-135.33,57.2,71,75,5.82,2020-09-11 23:56:35
171,Namibe,AO,-15.2,12.15,65.03,88,40,5.95,2020-09-11 23:56:35
172,Kloulklubed,PW,7.04,134.26,86.0,74,75,5.82,2020-09-11 23:56:36
173,Codrington,AU,-38.27,141.97,53.1,94,100,12.39,2020-09-11 23:56:36
174,Airai,TL,-8.93,125.41,68.7,42,16,5.64,2020-09-11 23:56:36
175,Geraldton,AU,-28.77,114.6,50.0,87,14,4.7,2020-09-11 23:56:36
176,Vostok,RU,46.49,135.88,56.61,77,0,3.11,2020-09-11 23:56:37
177,Lebu,CL,-37.62,-73.65,47.64,81,9,2.86,2020-09-11 23:56:37
178,Katsuura,JP,35.13,140.3,78.8,88,75,13.87,2020-09-11 23:56:37
179,Barcelos,PT,41.54,-8.62,73.0,93,18,2.24,2020-09-11 23:55:53
180,New Norfolk,AU,-42.78,147.06,53.01,58,74,1.01,2020-09-11 23:56:38
181,Bathsheba,BB,13.22,-59.52,82.4,74,20,5.82,2020-09-11 23:56:38
182,Souillac,MU,-20.52,57.52,69.8,88,40,10.29,2020-09-11 23:56:38
183,Vestmannaeyjar,IS,63.44,-20.27,48.24,85,75,4.72,2020-09-11 23:56:39
184,Marystown,CA,47.17,-55.15,55.99,100,100,17.02,2020-09-11 23:56:39
185,Puerto Escondido,MX,15.85,-97.07,82.4,65,75,4.65,2020-09-11 23:56:39
186,Tual,ID,-5.67,132.75,78.76,82,29,20.09,2020-09-11 23:54:57
187,Tapes,BR,-30.67,-51.4,63.19,89,53,7.02,2020-09-11 23:56:39
188,Tiksi,RU,71.69,128.87,49.57,74,96,4.74,2020-09-11 23:56:40
189,Puerto Maldonado,PE,-12.6,-69.18,84.42,46,46,1.79,2020-09-11 23:56:40
190,Davila,PH,18.47,120.58,78.8,94,20,4.7,2020-09-11 23:56:40
191,Jalu,LY,29.03,21.55,75.49,58,0,8.34,2020-09-11 23:56:41
192,Nanortalik,GL,60.14,-45.24,38.7,74,0,14.43,2020-09-11 23:56:41
193,Nome,US,64.5,-165.41,52.0,81,90,11.41,2020-09-11 23:56:41
194,Uglegorskiy,RU,48.24,41.25,61.0,38,4,10.38,2020-09-11 23:56:41
195,Troyes,FR,48.33,4.08,57.2,76,0,4.7,2020-09-11 23:56:42
196,Ouahigouya,BF,13.58,-2.42,80.08,70,72,5.73,2020-09-11 23:56:42
197,Tuatapere,NZ,-46.13,167.68,54.0,64,93,4.0,2020-09-11 23:56:42
198,West Wendover,US,40.74,-114.07,82.4,8,1,4.7,2020-09-11 23:56:43
199,Mahajanga,MG,-15.72,46.32,69.8,88,20,2.24,2020-09-11 23:56:43
200,Meulaboh,ID,4.14,96.13,76.35,84,100,5.08,2020-09-11 23:56:43
201,Black River,JM,18.03,-77.85,78.8,94,75,4.7,2020-09-11 23:56:43
202,Rio Grande,BR,-32.03,-52.1,59.0,96,94,3.0,2020-09-11 23:56:44
203,Tefe,BR,-3.35,-64.71,82.4,78,47,1.25,2020-09-11 23:56:44
204,Henties Bay,NA,-22.12,14.28,55.99,94,0,5.01,2020-09-11 23:56:44
205,Morant Bay,JM,17.88,-76.41,86.0,74,20,8.05,2020-09-11 23:56:44
206,Rapid Valley,US,44.06,-103.15,60.8,51,1,10.29,2020-09-11 23:56:45
207,Boende,CD,-0.22,20.87,70.3,93,99,1.68,2020-09-11 23:56:45
208,Englewood,US,39.65,-104.99,66.99,27,75,18.34,2020-09-11 23:53:38
209,Chikwawa,MW,-16.03,34.8,69.12,65,21,4.52,2020-09-11 23:56:46
210,Sawakin,SD,19.11,37.33,93.87,38,25,6.04,2020-09-11 23:56:46
211,Verkhniy Baskunchak,RU,48.23,46.72,64.0,63,9,6.15,2020-09-11 23:56:47
212,Sabang,ID,5.89,95.32,81.5,78,100,19.62,2020-09-11 23:56:47
213,Evensk,RU,61.95,159.23,49.66,73,100,16.42,2020-09-11 23:56:47
214,Sheregesh,RU,52.92,87.99,33.33,95,0,2.66,2020-09-11 23:56:47
215,Le Mars,US,42.79,-96.17,55.99,100,90,3.27,2020-09-11 23:56:48
216,Udachnyy,RU,66.42,112.4,44.6,81,90,4.47,2020-09-11 23:56:48
217,Muros,ES,42.78,-9.06,66.0,88,69,1.01,2020-09-11 23:56:48
218,Rabaul,PG,-4.2,152.17,85.44,67,1,10.94,2020-09-11 23:56:48
219,Clyde River,CA,70.47,-68.59,35.6,80,20,2.24,2020-09-11 23:56:48
220,Edzell,GB,56.81,-2.65,55.4,76,40,17.22,2020-09-11 23:56:49
221,Arys,KZ,42.43,68.8,60.8,34,9,6.71,2020-09-11 23:56:49
222,Marsh Harbour,BS,26.54,-77.06,78.64,89,100,18.86,2020-09-11 23:56:49
223,Havre-Saint-Pierre,CA,50.23,-63.6,46.4,93,75,8.05,2020-09-11 23:56:49
224,Synevyr,UA,48.49,23.63,53.01,84,28,8.01,2020-09-11 23:56:50
225,Mackay,AU,-21.15,149.2,70.0,68,90,18.34,2020-09-11 23:56:50
226,Kaspiyskiy,RU,45.39,47.37,67.01,68,0,7.99,2020-09-11 23:56:50
227,Inhambane,MZ,-23.86,35.38,68.52,80,35,8.93,2020-09-11 23:56:50
228,Tongchuan,CN,35.08,109.09,65.7,73,0,6.85,2020-09-11 23:56:51
229,Bereznik,RU,62.86,42.71,42.98,96,75,4.65,2020-09-11 23:56:51
230,Bayshore Gardens,US,27.43,-82.59,82.0,88,40,5.82,2020-09-11 23:56:51
231,Kofele,ET,7.07,38.78,48.29,97,80,3.67,2020-09-11 23:56:52
232,Tucumcari,US,35.17,-103.72,78.8,34,1,20.8,2020-09-11 23:56:52
233,Coahuayana,MX,18.73,-103.68,80.6,78,75,17.22,2020-09-11 23:56:52
234,Ilabaya,PE,-17.42,-70.51,58.84,47,2,0.98,2020-09-11 23:56:52
235,Dakar,SN,14.69,-17.44,80.6,88,40,4.7,2020-09-11 23:56:52
236,Dikson,RU,73.51,80.55,43.63,95,78,18.61,2020-09-11 23:56:53
237,San Clemente,US,33.43,-117.61,88.0,33,0,1.99,2020-09-11 23:53:33
238,Kudahuvadhoo,MV,2.67,72.89,81.77,79,97,13.73,2020-09-11 23:56:53
239,Aloleng,PH,16.13,119.78,85.05,72,96,4.63,2020-09-11 23:56:53
240,Verkh-Usugli,RU,52.7,115.17,51.21,82,38,2.77,2020-09-11 23:56:54
241,Marfino,RU,55.7,37.38,52.0,87,98,4.47,2020-09-11 23:56:54
242,Silver City,US,32.77,-108.28,68.0,60,1,5.82,2020-09-11 23:56:54
243,Batemans Bay,AU,-35.72,150.18,69.01,55,66,2.86,2020-09-11 23:56:54
244,Suzhou,CN,31.31,120.62,78.01,79,88,8.86,2020-09-11 23:56:55
245,Anamur,TR,36.08,32.84,75.2,78,20,4.7,2020-09-11 23:56:55
246,Karasjok,NO,69.47,25.51,42.8,81,65,11.41,2020-09-11 23:56:55
247,Abhar,IR,36.15,49.22,58.64,58,0,2.28,2020-09-11 23:56:55
248,Mpanda,TZ,-6.37,31.04,73.72,35,100,4.7,2020-09-11 23:56:56
249,Yulara,AU,-25.24,130.99,73.4,27,0,8.05,2020-09-11 23:56:56
250,Mogadishu,SO,2.04,45.34,77.79,84,84,18.21,2020-09-11 23:56:56
251,San Matias,BO,-16.37,-58.4,90.25,19,5,6.06,2020-09-11 23:56:56
252,Fortuna,US,40.6,-124.16,64.0,77,1,9.17,2020-09-11 23:56:56
253,Rengasdengklok,ID,-6.16,107.3,81.0,83,20,3.36,2020-09-11 23:56:57
254,College,US,64.86,-147.8,46.4,75,90,9.17,2020-09-11 23:56:00
255,Ndjole,GA,-0.18,10.76,74.66,85,67,5.46,2020-09-11 23:56:57
256,Saldanha,ZA,-33.01,17.94,60.8,72,29,3.36,2020-09-11 23:56:57
257,Lewisburg,US,35.45,-86.79,84.2,66,1,4.72,2020-09-11 23:56:58
258,Viedma,AR,-40.81,-63.0,50.25,43,14,11.27,2020-09-11 23:56:58
259,Avera,US,33.19,-82.53,80.01,74,1,4.7,2020-09-11 23:56:58
260,Maroantsetra,MG,-15.43,49.73,69.22,89,93,1.5,2020-09-11 23:56:58
261,Vadso,NO,70.07,29.75,44.6,81,36,16.11,2020-09-11 23:56:59
262,Nioki,CD,-2.72,17.68,73.6,87,99,2.84,2020-09-11 23:56:59
263,Morondava,MG,-20.28,44.28,75.54,64,61,5.35,2020-09-11 23:56:59
264,Batagay-Alyta,RU,67.8,130.41,49.82,56,100,0.58,2020-09-11 23:56:59
265,Traverse City,US,44.76,-85.62,64.4,72,75,8.05,2020-09-11 23:55:00
266,Bandarbeyla,SO,9.49,50.81,79.57,67,66,16.22,2020-09-11 23:56:59
267,Nguruka,TZ,-5.11,31.04,67.59,50,69,2.77,2020-09-11 23:57:00
268,Boa Vista,BR,2.82,-60.67,87.8,58,20,5.82,2020-09-11 23:57:00
269,Mopti,ML,14.67,-4.0,84.72,60,23,6.42,2020-09-11 23:57:00
270,Broome,US,42.25,-75.83,59.0,67,1,5.82,2020-09-11 23:57:01
271,Basco,PH,20.45,121.97,84.72,75,58,8.68,2020-09-11 23:57:01
272,Dwarka,IN,22.24,68.97,82.31,75,100,5.26,2020-09-11 23:57:01
273,Camacha,PT,33.08,-16.33,69.8,77,40,8.05,2020-09-11 23:57:01
274,Toccoa,US,34.58,-83.33,82.4,69,1,4.09,2020-09-11 23:57:01
275,Yamada,JP,39.47,141.95,67.08,91,100,12.88,2020-09-11 23:57:02
276,Kamenka,RU,51.32,42.77,47.08,82,0,5.48,2020-09-11 23:57:02
277,Caraz,PE,-9.05,-77.81,64.56,46,82,3.74,2020-09-11 23:57:02
278,Faanui,PF,-16.48,-151.75,78.4,71,23,9.33,2020-09-11 23:57:02
279,Qasigiannguit,GL,68.82,-51.19,30.2,36,5,9.17,2020-09-11 23:57:03
280,Manicore,BR,-5.81,-61.3,82.4,83,65,1.12,2020-09-11 23:57:03
281,Amot,NO,59.57,7.99,43.23,85,84,3.8,2020-09-11 23:57:03
282,Atambua,ID,-9.11,124.89,79.38,45,18,4.23,2020-09-11 23:57:04
283,Pangyan,PH,5.7,125.28,85.37,63,74,3.67,2020-09-11 23:57:04
284,Frontignan,FR,43.45,3.75,71.6,68,92,2.24,2020-09-11 23:57:04
285,Kuusamo,FI,65.97,29.18,41.0,93,66,5.82,2020-09-11 23:57:04
286,Polasara,IN,19.7,84.82,78.91,90,80,1.01,2020-09-11 23:57:05
287,Portland,US,45.52,-122.68,66.2,63,90,4.7,2020-09-11 23:54:00
288,Jose De Freitas,BR,-4.76,-42.58,86.0,48,99,3.36,2020-09-11 23:57:01
289,Buritis,BR,-15.62,-46.42,71.01,25,0,1.34,2020-09-11 23:57:05
290,Mayna,RU,54.11,47.62,45.23,90,4,8.7,2020-09-11 23:57:05
291,Waipawa,NZ,-41.41,175.52,52.0,57,0,14.99,2020-09-11 23:57:06
292,Sorkjosen,NO,69.8,20.93,45.97,72,94,7.96,2020-09-11 23:57:06
293,Los Llanos De Aridane,ES,28.66,-17.92,75.2,78,90,16.11,2020-09-11 23:57:06
294,San Jose,US,37.34,-121.89,78.01,47,90,6.93,2020-09-11 23:52:07
295,Pokhara,NP,28.23,83.98,69.19,77,100,2.19,2020-09-11 23:57:06
296,Necochea,AR,-38.55,-58.74,37.99,79,7,1.99,2020-09-11 23:57:07
297,Kyzyl-Suu,KG,42.34,78.0,55.09,43,61,3.49,2020-09-11 23:57:07
298,Phan Thiet,VN,10.93,108.1,79.7,80,63,3.04,2020-09-11 23:57:07
299,Solnechnyy,RU,50.72,136.63,59.43,53,0,2.64,2020-09-11 23:57:07
300,Zabol,AF,32.25,67.25,55.06,33,0,1.45,2020-09-11 23:57:08
301,Kishanganj,IN,26.12,87.93,77.77,94,89,5.82,2020-09-11 23:57:08
302,Panaba,MX,21.28,-88.27,80.29,79,98,6.49,2020-09-11 23:57:08
303,Labuhan,ID,-6.88,112.21,78.49,71,31,14.05,2020-09-11 23:57:08
304,Daru,PG,-9.08,143.21,77.79,74,29,15.12,2020-09-11 23:57:09
305,Savinskiy,RU,62.93,40.14,43.74,96,86,5.1,2020-09-11 23:57:09
306,San Carlos,VE,9.66,-68.58,75.42,92,57,1.14,2020-09-11 23:57:09
307,Kuryk,KZ,43.2,51.65,67.66,49,0,7.31,2020-09-11 23:57:09
308,The Valley,AI,18.22,-63.06,82.4,78,20,6.93,2020-09-11 23:57:10
309,Agirish,RU,61.92,63.02,50.68,92,100,7.2,2020-09-11 23:57:10
310,Bugarama,TZ,-2.87,30.53,68.63,49,71,3.18,2020-09-11 23:57:10
311,Alekseyevsk,RU,57.84,108.35,48.4,89,99,2.62,2020-09-11 23:57:11
312,Khasan,RU,42.43,130.64,61.5,88,100,5.84,2020-09-11 23:57:11
313,North Bend,US,43.41,-124.22,69.01,93,90,6.93,2020-09-11 23:55:38
314,Katangli,RU,51.71,143.23,57.51,71,0,12.08,2020-09-11 23:57:12
315,Saint-Ambroise,CA,48.55,-71.33,53.6,76,40,4.7,2020-09-11 23:57:12
316,Quimper,FR,48.0,-4.1,50.0,93,0,3.36,2020-09-11 23:57:12
317,Bambous Virieux,MU,-20.34,57.76,70.0,88,40,10.29,2020-09-11 23:57:12
318,Korla,CN,41.76,86.15,66.0,78,0,1.99,2020-09-11 23:57:12
319,Baykit,RU,61.67,96.37,44.47,83,17,0.98,2020-09-11 23:57:13
320,Opuwo,NA,-18.06,13.84,60.73,29,0,3.71,2020-09-11 23:57:13
321,Kaeo,NZ,-35.1,173.78,56.53,41,0,6.49,2020-09-11 23:57:13
322,Kulhudhuffushi,MV,6.62,73.07,81.64,79,67,14.76,2020-09-11 23:57:13
323,Mumford,GH,5.26,-0.76,74.62,93,43,10.87,2020-09-11 23:57:13
324,Shiyan,CN,32.65,110.78,70.21,76,36,1.9,2020-09-11 23:57:14
325,Sorland,NO,67.67,12.69,51.3,85,100,28.97,2020-09-11 23:57:14
326,Bayburt,TR,40.26,40.23,55.99,61,50,1.48,2020-09-11 23:57:14
327,Padang,ID,-0.95,100.35,77.11,74,99,2.57,2020-09-11 23:57:14
328,Fougamou,GA,-1.22,10.58,73.17,86,96,3.69,2020-09-11 23:57:14
329,Ardalstangen,NO,61.24,7.7,47.7,74,93,5.21,2020-09-11 23:53:50
330,Kamaishi,JP,39.27,141.88,71.6,88,75,1.12,2020-09-11 23:57:15
331,Aksu,CN,41.12,80.26,67.37,39,44,5.57,2020-09-11 23:57:15
332,Chulym,RU,55.1,80.96,45.12,89,94,3.8,2020-09-11 23:57:15
333,Kutum,SD,14.2,24.67,74.41,67,86,1.23,2020-09-11 23:57:15
334,Casas Grandes,MX,30.37,-107.95,77.0,46,9,7.0,2020-09-11 23:57:16
335,Gusev,RU,54.59,22.2,51.57,72,68,6.78,2020-09-11 23:57:16
336,Fairbanks,US,64.84,-147.72,46.4,75,90,9.17,2020-09-11 23:55:02
337,Bhag,PK,29.04,67.82,91.11,39,0,8.23,2020-09-11 23:57:17
338,Nurota,UZ,40.56,65.69,60.8,36,0,4.7,2020-09-11 23:57:17
339,Port Hardy,CA,50.7,-127.42,62.6,82,20,14.99,2020-09-11 23:57:17
340,Severo-Kurilsk,RU,50.68,156.12,50.34,87,84,18.88,2020-09-11 23:57:17
341,Kattivakkam,IN,13.22,80.32,80.6,83,75,5.82,2020-09-11 23:54:24
342,Eyl,SO,7.98,49.82,79.34,69,83,19.55,2020-09-11 23:57:18
343,Vila Velha,BR,-20.33,-40.29,77.0,73,0,12.75,2020-09-11 23:55:17
344,Sambava,MG,-14.27,50.17,69.53,83,66,9.91,2020-09-11 23:57:18
345,Prince Rupert,CA,54.32,-130.32,62.6,72,1,3.36,2020-09-11 23:57:18
346,Bad Lauterberg,DE,51.63,10.47,52.0,83,3,2.24,2020-09-11 23:57:19
347,Ulladulla,AU,-35.35,150.47,64.0,55,35,11.41,2020-09-11 23:57:19
348,Omsukchan,RU,62.53,155.8,46.74,56,95,9.24,2020-09-11 23:57:19
349,Bachaquero,VE,9.97,-71.15,82.98,73,19,2.55,2020-09-11 23:57:19
350,Grand Gaube,MU,-20.01,57.66,70.0,81,36,5.01,2020-09-11 23:57:19
351,Norwich,GB,52.63,1.3,55.4,76,56,8.05,2020-09-11 23:56:56
352,Mokolo,CM,10.74,13.8,70.81,86,88,2.13,2020-09-11 23:57:20
353,Omaruru,NA,-21.43,15.93,60.82,31,0,5.84,2020-09-11 23:57:20
354,Dong Hoi,VN,17.48,106.6,82.49,74,100,3.87,2020-09-11 23:57:20
355,Elat,IL,29.56,34.95,87.8,70,0,6.29,2020-09-11 23:57:20
356,Port Augusta,AU,-32.5,137.77,73.0,87,0,6.93,2020-09-11 23:57:21
357,Antalaha,MG,-14.9,50.28,68.5,88,38,6.8,2020-09-11 23:57:21
358,Caratinga,BR,-19.79,-42.14,68.99,54,16,2.33,2020-09-11 23:57:21
359,Krasnyy Luch,UA,48.14,38.94,56.23,41,0,10.85,2020-09-11 23:57:21
360,Brodick,GB,55.58,-5.15,55.4,76,20,17.22,2020-09-11 23:57:22
361,Hohhot,CN,40.81,111.65,53.6,81,4,6.71,2020-09-11 23:57:22
362,Ryzdvyanyy,RU,45.27,41.84,60.8,59,0,8.95,2020-09-11 23:57:22
363,Perth,AU,-31.93,115.83,54.0,93,0,4.7,2020-09-11 23:55:50
364,Elliot Lake,CA,46.38,-82.63,57.2,62,1,6.93,2020-09-11 23:57:23
365,Port Lincoln,AU,-34.73,135.87,58.08,85,97,11.01,2020-09-11 23:57:23
366,Gat,IL,31.61,34.76,82.0,18,0,4.38,2020-09-11 23:57:23
367,Pevek,RU,69.7,170.31,42.89,86,30,0.4,2020-09-11 23:57:23
368,Port Moresby,PG,-9.44,147.18,82.4,65,20,11.41,2020-09-11 23:57:24
369,Selaphum,TH,16.03,103.94,77.0,94,20,4.54,2020-09-11 23:57:24
370,Jinchang,CN,38.5,102.17,61.95,41,97,13.78,2020-09-11 23:57:24
371,Harnosand,SE,62.63,17.94,53.01,93,100,8.05,2020-09-11 23:57:24
372,Dubbo,AU,-32.25,148.62,60.8,67,2,5.82,2020-09-11 23:53:41
373,Da Nang,VN,16.07,108.22,80.6,78,20,4.7,2020-09-11 23:57:25
374,Constitucion,CL,-35.33,-72.42,48.83,80,0,14.43,2020-09-11 23:57:25
375,Irtyshskiy,RU,58.33,68.13,48.94,71,12,11.07,2020-09-11 23:57:25
376,Kuytun,RU,54.34,101.5,44.37,90,100,10.04,2020-09-11 23:57:26
377,Berdigestyakh,RU,62.1,126.7,54.93,77,93,1.43,2020-09-11 23:57:26
378,Calabozo,VE,8.92,-67.43,76.46,92,91,2.89,2020-09-11 23:57:26
379,Ishigaki,JP,24.34,124.16,84.2,94,75,6.93,2020-09-11 23:57:26
380,Margate,GB,51.38,1.39,57.99,58,0,5.99,2020-09-11 23:57:27
381,Takoradi,GH,4.88,-1.76,74.84,91,63,9.06,2020-09-11 23:57:27
382,Palmeiras De Goias,BR,-16.8,-49.93,74.5,20,0,4.63,2020-09-11 23:57:27
383,Benjamin Hill,MX,30.17,-111.1,96.01,30,0,8.01,2020-09-11 23:57:28
384,Pitimbu,BR,-7.47,-34.81,75.2,78,40,8.05,2020-09-11 23:57:28
385,Teahupoo,PF,-17.83,-149.27,86.0,58,20,3.36,2020-09-11 23:57:28
386,Mindelo,CV,16.89,-24.98,82.4,78,40,5.82,2020-09-11 23:57:28
387,Petropavlovsk-Kamchatskiy,RU,53.05,158.65,55.4,82,20,4.47,2020-09-11 23:57:28
388,Poum,NC,-20.23,164.02,71.69,71,1,12.46,2020-09-11 23:57:29
389,Inuvik,CA,68.35,-133.72,44.6,81,75,2.24,2020-09-11 23:57:09
390,Maxixe,MZ,-23.86,35.35,67.73,81,35,7.81,2020-09-11 23:57:29
391,Mount Isa,AU,-20.73,139.5,80.6,18,0,10.29,2020-09-11 23:57:29
392,San Quintin,MX,30.48,-115.95,79.05,45,0,15.05,2020-09-11 23:57:29
393,Changji,CN,44.02,87.32,53.6,54,0,2.24,2020-09-11 23:57:30
394,Lima,PE,-12.04,-77.03,60.8,77,90,9.17,2020-09-11 23:52:39
395,Gbarnga,LR,7.0,-9.47,69.46,98,89,1.25,2020-09-11 23:57:30
396,Itarema,BR,-2.92,-39.92,78.17,79,75,16.46,2020-09-11 23:57:30
397,Jacareacanga,BR,-6.22,-57.75,78.84,70,89,2.3,2020-09-11 23:57:30
398,Srednekolymsk,RU,67.45,153.68,52.83,52,0,1.77,2020-09-11 23:57:31
399,Husum,DE,54.49,9.05,53.6,81,77,8.05,2020-09-11 23:57:31
400,Tromso,NO,69.65,18.96,46.4,93,75,21.92,2020-09-11 23:57:31
401,Aripuana,BR,-9.17,-60.63,81.79,55,91,0.89,2020-09-11 23:57:32
402,Qaqortoq,GL,60.72,-46.03,39.2,38,0,6.93,2020-09-11 23:52:53
403,Lengshuitan,CN,26.41,111.6,73.09,87,95,4.9,2020-09-11 23:57:32
404,Terney,RU,45.05,136.61,59.95,63,65,9.01,2020-09-11 23:57:32
405,Manoel Urbano,BR,-8.84,-69.26,80.98,60,21,0.11,2020-09-11 23:57:32
406,Honiara,SB,-9.43,159.95,89.6,62,20,10.29,2020-09-11 23:57:33
407,Brainerd,US,46.36,-94.2,59.0,62,90,8.19,2020-09-11 23:57:33
408,Karratha,AU,-20.74,116.85,81.79,33,0,14.79,2020-09-11 23:57:33
409,Kupang,ID,-10.17,123.58,82.4,45,20,12.75,2020-09-11 23:57:34
410,Luau,AO,-10.71,22.22,65.05,28,19,4.41,2020-09-11 23:57:34
411,Pacific Grove,US,36.62,-121.92,66.99,92,15,1.99,2020-09-11 23:56:24
412,Alofi,NU,-19.06,-169.92,80.6,83,40,9.17,2020-09-11 23:57:34
413,Okhotsk,RU,59.38,143.3,57.43,57,0,4.14,2020-09-11 23:57:34
414,Prieska,ZA,-29.66,22.75,73.69,20,0,11.41,2020-09-11 23:57:35
415,Ko Samui,TH,9.54,99.94,80.6,83,20,12.12,2020-09-11 23:57:35
416,Grindavik,IS,63.84,-22.43,46.4,87,40,17.22,2020-09-11 23:57:35
417,Richards Bay,ZA,-28.78,32.04,63.27,86,0,3.76,2020-09-11 23:57:35
418,Xuddur,SO,4.12,43.89,73.38,74,79,18.68,2020-09-11 23:57:35
419,Uyuni,BO,-20.46,-66.83,50.14,37,1,5.68,2020-09-11 23:57:36
420,Sennoy,RU,52.15,46.96,46.22,85,0,3.96,2020-09-11 23:57:36
421,Pangody,RU,65.85,74.49,51.58,83,60,12.82,2020-09-11 23:57:36
422,Moosomin,CA,50.13,-101.67,69.22,26,0,8.14,2020-09-11 23:57:36
423,Abbeville,FR,50.1,1.83,53.01,80,19,5.35,2020-09-11 23:57:37
424,Pozo Colorado,PY,-23.49,-58.8,87.06,23,69,7.4,2020-09-11 23:57:37
425,Mecca,SA,21.43,39.83,90.79,38,35,3.69,2020-09-11 23:57:37
426,Wanaka,NZ,-44.7,169.15,52.45,47,60,7.85,2020-09-11 23:57:37
427,Ushtobe,KZ,45.25,77.98,54.01,38,40,7.74,2020-09-11 23:57:37
428,Gilgit,PK,35.92,74.31,70.48,36,52,1.92,2020-09-11 23:57:38
429,Maumere,ID,-8.62,122.21,81.46,53,100,2.64,2020-09-11 23:57:38
430,Mago,RU,53.25,140.18,56.91,56,9,3.13,2020-09-11 23:57:38
431,Coquimbo,CL,-29.95,-71.34,53.6,87,0,10.29,2020-09-11 23:57:38
432,Tateyama,JP,34.98,139.87,75.2,100,75,8.05,2020-09-11 23:57:38
433,Beni Mazar,EG,28.5,30.8,77.31,52,0,8.86,2020-09-11 23:57:39
434,Mandello Del Lario,IT,45.92,9.32,69.01,87,76,2.8,2020-09-11 23:57:39
435,Pauini,BR,-7.71,-66.98,81.73,55,94,1.66,2020-09-11 23:57:39
436,Kruisfontein,ZA,-34.0,24.73,64.0,86,91,4.0,2020-09-11 23:57:39
437,Sao Filipe,CV,14.9,-24.5,82.2,72,37,4.92,2020-09-11 23:57:39
438,Bud,US,39.45,-86.18,73.0,78,90,4.7,2020-09-11 23:57:40
439,Haapiti,PF,-17.57,-149.87,86.0,58,20,3.36,2020-09-11 23:57:40
440,Lively,CA,46.43,-81.15,59.0,58,75,4.7,2020-09-11 23:57:40
441,Lompoc,US,34.64,-120.46,66.99,77,1,10.29,2020-09-11 23:57:40
442,Paraopeba,BR,-19.28,-44.4,78.8,29,0,4.7,2020-09-11 23:57:41
443,Sur,OM,22.57,59.53,82.65,54,24,5.91,2020-09-11 23:57:41
444,Canon City,US,38.44,-105.24,69.01,28,2,8.01,2020-09-11 23:57:41
445,Kaspiysk,RU,42.88,47.64,62.6,88,1,6.71,2020-09-11 23:57:41
446,Pemangkat,ID,1.17,108.97,76.71,89,99,6.55,2020-09-11 23:57:42
447,Fukue,JP,32.69,128.84,75.2,94,75,4.7,2020-09-11 23:57:42
448,Hargeysa,SO,9.56,44.06,72.1,57,83,19.84,2020-09-11 23:57:42
449,Vangaindrano,MG,-23.35,47.6,66.15,92,9,4.14,2020-09-11 23:57:42
450,Ust-Uda,RU,54.17,103.03,44.53,92,100,5.64,2020-09-11 23:57:42
451,Matara,LK,5.95,80.54,76.68,89,99,8.77,2020-09-11 23:57:43
452,Walvis Bay,NA,-22.96,14.51,55.99,93,0,9.17,2020-09-11 23:57:43
453,Jiaozuo,CN,35.24,113.23,70.18,65,85,5.39,2020-09-11 23:57:43
454,Te Anau,NZ,-45.42,167.72,49.87,70,83,8.88,2020-09-11 23:57:43
455,Scarborough,GB,54.28,-0.4,57.99,89,100,1.99,2020-09-11 23:57:43
456,Sinegorye,RU,62.08,150.48,46.42,59,22,5.53,2020-09-11 23:57:44
457,Deputatskiy,RU,69.3,139.9,51.1,48,3,1.21,2020-09-11 23:57:44
458,Huilong,CN,31.81,121.66,77.0,88,41,4.0,2020-09-11 23:57:44
459,Durazno,UY,-33.41,-56.5,52.86,66,57,15.32,2020-09-11 23:56:26
460,Zwedru,LR,6.07,-8.13,70.9,98,93,2.53,2020-09-11 23:57:44
461,Turukhansk,RU,65.82,87.98,52.65,96,99,10.89,2020-09-11 23:57:45
462,Ndele,CF,8.41,20.65,70.57,92,100,2.08,2020-09-11 23:57:45
463,Saint-Joseph,RE,-21.37,55.62,68.0,77,54,3.36,2020-09-11 23:57:45
464,North Creek,US,47.82,-122.18,80.01,53,90,6.93,2020-09-11 23:57:45
465,Kharan,PK,28.58,65.42,74.23,20,0,5.39,2020-09-11 23:57:46
466,Cabra,ES,37.47,-4.44,73.0,43,94,2.48,2020-09-11 23:57:46
467,Zyryanka,RU,65.75,150.85,54.54,52,0,1.59,2020-09-11 23:57:46
468,Xinmin,CN,41.99,122.83,64.4,100,41,2.24,2020-09-11 23:57:46
469,Bacolod,PH,10.67,122.95,83.17,72,100,1.07,2020-09-11 23:57:47
470,Lensk,RU,60.73,114.93,51.28,87,100,1.1,2020-09-11 23:57:47
471,Comodoro Rivadavia,AR,-45.87,-67.5,59.0,30,23,31.09,2020-09-11 23:55:07
472,Pengcheng,CN,36.43,114.17,68.36,66,4,10.22,2020-09-11 23:57:47
473,Aquiraz,BR,-3.9,-38.39,80.6,78,40,9.17,2020-09-11 23:57:47
474,Gamba,GA,-2.65,10.0,74.8,83,99,8.28,2020-09-11 23:57:48
475,Bamiantong,CN,44.93,130.53,59.67,82,99,5.01,2020-09-11 23:57:48
476,Greenville,US,35.61,-77.37,75.0,100,1,4.7,2020-09-11 23:57:00
477,Teknaf,BD,20.86,92.31,79.92,88,77,5.68,2020-09-11 23:57:48
478,Sao Jose Da Coroa Grande,BR,-8.9,-35.15,73.56,78,2,11.7,2020-09-11 23:57:48
479,Yerbogachen,RU,61.28,108.01,49.32,74,100,0.51,2020-09-11 23:57:49
480,Shingu,JP,33.73,135.98,80.6,78,20,2.24,2020-09-11 23:57:49
481,Sao Paulo De Olivenca,BR,-3.38,-68.87,78.91,69,30,1.57,2020-09-11 23:57:49
482,Kawalu,ID,-7.38,108.21,72.09,85,98,2.46,2020-09-11 23:57:49
483,Hobyo,SO,5.35,48.53,77.81,79,0,25.41,2020-09-11 23:57:50
484,Fairlie,GB,55.76,-4.86,55.4,87,75,11.41,2020-09-11 23:57:50
485,Alta Floresta,BR,-9.88,-56.09,83.01,29,20,1.01,2020-09-11 23:57:50
486,Zeya,RU,53.75,127.27,59.88,70,13,3.44,2020-09-11 23:57:50
487,Cedar City,US,37.68,-113.06,78.8,6,1,6.93,2020-09-11 23:57:50
488,Nishihara,JP,26.18,127.76,84.2,94,75,10.29,2020-09-11 23:57:51
489,Nisia Floresta,BR,-6.09,-35.21,77.0,69,20,13.87,2020-09-11 23:57:51
490,Quelimane,MZ,-17.88,36.89,66.92,93,0,3.78,2020-09-11 23:57:51
491,Saint-Georges,GD,12.06,-61.75,84.2,74,20,5.82,2020-09-11 23:57:51
492,Rawson,AR,-43.3,-65.1,55.08,39,29,17.83,2020-09-11 23:57:51
493,Temir,KZ,49.14,57.13,57.0,48,0,4.34,2020-09-11 23:57:52
494,Valparaiso,CL,-33.04,-71.63,59.0,58,0,3.36,2020-09-11 23:57:52
495,Mahon,ES,39.89,4.27,69.8,88,10,5.82,2020-09-11 23:57:52
496,Ibra,OM,22.69,58.53,80.64,52,58,2.82,2020-09-11 23:57:52
497,Pangkalanbuun,ID,-2.68,111.62,77.95,88,98,2.13,2020-09-11 23:57:53
498,Nuuk,GL,64.18,-51.72,39.2,60,0,8.05,2020-09-11 23:56:25
499,Sao Lourenco Do Sul,BR,-31.37,-51.98,59.0,96,84,3.0,2020-09-11 23:57:53
500,Hovd,MN,48.01,91.64,41.29,63,61,1.32,2020-09-11 23:57:53
501,Betsiamites,CA,48.94,-68.65,55.4,87,75,8.05,2020-09-11 23:57:54
502,Saint-Pierre,RE,-21.34,55.48,68.0,77,62,3.36,2020-09-11 23:57:54
503,Sao Miguel,BR,-5.47,-35.37,77.0,78,40,5.82,2020-09-11 23:57:54
504,San Cristobal,VE,7.77,-72.22,86.0,62,75,8.05,2020-09-11 23:56:14
505,Grand-Santi,GF,4.25,-54.38,78.42,57,48,1.68,2020-09-11 23:57:54
506,Erenhot,CN,43.65,111.98,59.31,67,24,13.87,2020-09-11 23:57:55
507,Lethem,GY,3.38,-59.8,80.98,70,61,3.56,2020-09-11 23:57:55
508,Suzun,RU,53.78,82.31,43.97,93,0,4.0,2020-09-11 23:57:55
509,Lavrentiya,RU,65.58,-171.0,47.16,66,54,5.59,2020-09-11 23:57:55
510,Chipinge,ZW,-20.19,32.62,53.51,89,1,4.32,2020-09-11 23:57:56
511,Luderitz,NA,-26.65,15.16,65.95,46,0,1.19,2020-09-11 23:57:56
512,Togur,RU,58.36,82.83,48.94,98,100,4.83,2020-09-11 23:57:56
513,Kenai,US,60.55,-151.26,59.0,38,1,4.7,2020-09-11 23:57:56
514,Burnie,AU,-41.07,145.92,54.0,71,93,4.0,2020-09-11 23:57:56
515,Lagoa,PT,39.05,-27.98,71.56,77,51,7.54,2020-09-11 23:57:57
516,Severnoye,RU,56.35,78.36,47.46,80,100,5.57,2020-09-11 23:57:57
517,Aklavik,CA,68.22,-135.01,44.6,81,75,2.24,2020-09-11 23:57:57
518,Carthage,TN,36.86,10.33,73.4,64,40,4.7,2020-09-11 23:57:57
519,Praia Da Vitoria,PT,38.73,-27.07,71.01,88,75,8.79,2020-09-11 23:57:57
520,Aguilas,ES,37.41,-1.58,70.0,57,91,3.06,2020-09-11 23:57:58
521,Brandon,US,27.94,-82.29,82.99,88,40,11.41,2020-09-11 23:57:58
522,Kalengwa,ZM,-13.47,25.0,58.21,36,0,6.17,2020-09-11 23:57:58
523,Sakaraha,MG,-22.9,44.53,67.57,74,18,1.23,2020-09-11 23:57:58
524,Houma,US,29.6,-90.72,82.99,88,1,4.45,2020-09-11 23:57:58
525,Cherskiy,RU,68.75,161.3,49.5,61,79,2.08,2020-09-11 23:57:59
526,Williamsport,US,41.24,-77.0,66.2,48,1,10.29,2020-09-11 23:56:14
527,Aketi,CD,2.74,23.78,70.43,97,100,4.7,2020-09-11 23:57:59
528,Nara,JP,34.69,135.8,82.99,69,20,5.82,2020-09-11 23:57:59
529,Belyy Yar,RU,53.6,91.39,35.6,100,95,2.24,2020-09-11 23:57:59
530,Launceston,AU,-41.45,147.17,50.0,87,90,12.75,2020-09-11 23:58:00
531,Sangmelima,CM,2.93,11.98,67.93,98,100,3.85,2020-09-11 23:58:00
532,Zhanakorgan,KZ,43.91,67.25,57.33,57,32,11.52,2020-09-11 23:58:00
533,Zhicheng,CN,30.3,111.5,73.0,89,100,2.21,2020-09-11 23:58:00
534,Sindor,RU,62.86,51.89,47.98,92,75,9.28,2020-09-11 23:58:01
535,Havoysund,NO,71.0,24.66,42.8,87,75,4.7,2020-09-11 23:58:01
536,Alugan,PH,12.22,125.48,82.74,76,100,2.75,2020-09-11 23:58:01
537,Saint-Leu,RE,-21.15,55.28,68.0,77,56,3.36,2020-09-11 23:58:01
538,Orangeburg,US,33.49,-80.86,78.01,88,1,3.36,2020-09-11 23:58:01
539,Kieta,PG,-6.22,155.63,85.5,63,4,4.52,2020-09-11 23:58:02
540,Buala,SB,-8.14,159.59,85.28,68,1,7.02,2020-09-11 23:58:02
541,Campbell River,CA,50.02,-125.24,75.2,53,20,5.82,2020-09-11 23:58:02
542,Gold Coast,AU,-28.0,153.43,71.01,67,28,4.0,2020-09-11 23:57:28
543,Petatlan,MX,17.52,-101.27,89.6,66,75,4.7,2020-09-11 23:58:02
544,Viseu,PT,40.66,-7.91,71.01,54,22,1.99,2020-09-11 23:57:35
545,Impfondo,CG,1.64,18.07,70.79,98,100,2.75,2020-09-11 23:58:03
546,Hualmay,PE,-11.1,-77.61,60.24,83,11,6.73,2020-09-11 23:58:03
547,Sao Miguel Do Araguaia,BR,-13.28,-50.16,80.56,21,0,4.63,2020-09-11 23:58:04
548,Moa,CU,20.66,-74.94,80.35,82,69,7.61,2020-09-11 23:58:04
549,Nokaneng,BW,-19.67,22.27,62.78,31,0,10.31,2020-09-11 23:58:04
550,Ilulissat,GL,69.22,-51.1,30.2,36,0,9.17,2020-09-11 23:58:04
551,Chegdomyn,RU,51.12,133.02,58.3,60,0,2.35,2020-09-11 23:58:04
552,Lahaina,US,20.88,-156.68,91.4,48,40,20.8,2020-09-11 23:58:04
553,Lebedinyy,RU,58.52,125.52,58.23,85,97,7.78,2020-09-11 23:58:05
554,Tallahassee,US,30.44,-84.28,78.8,83,75,4.7,2020-09-11 23:54:34
555,Hailin,CN,44.58,129.42,57.33,83,100,6.02,2020-09-11 23:58:05
556,Seminole,US,28.71,-81.21,84.2,74,1,9.17,2020-09-11 23:58:05
557,Whitehorse,CA,60.72,-135.05,42.8,60,75,5.82,2020-09-11 23:58:05
558,Yeppoon,AU,-23.13,150.73,71.6,53,75,17.22,2020-09-11 23:58:06
559,Fare,PF,-16.7,-151.02,79.12,71,34,9.75,2020-09-11 23:58:06
560,Bardiyah,LY,31.76,25.09,74.52,83,0,9.64,2020-09-11 23:58:06
561,Kamensk-Uralskiy,RU,56.42,61.93,52.88,96,100,11.01,2020-09-11 23:58:06
562,Rio Gallegos,AR,-51.62,-69.22,42.8,52,40,23.04,2020-09-11 23:58:06
563,Taylor,US,32.3,-99.83,72.0,60,75,6.93,2020-09-11 23:58:07
564,Bolu,TR,40.67,31.58,62.76,64,18,2.17,2020-09-11 23:58:07
565,Grootfontein,NA,-19.57,18.12,53.69,41,0,4.5,2020-09-11 23:58:07
566,Maku,IR,39.29,44.45,67.33,42,35,1.34,2020-09-11 23:58:07
567,Vestmanna,FO,62.16,-7.17,48.2,81,28,18.34,2020-09-11 23:58:08
568,Karuzi,BI,-3.12,30.13,61.79,61,80,1.7,2020-09-11 23:58:08
569,Ust-Nera,RU,64.57,143.2,55.98,39,0,1.5,2020-09-11 23:58:08
570,Fort Nelson,CA,58.81,-122.7,55.4,50,40,5.82,2020-09-11 23:58:08
571,Benguela,AO,-12.58,13.41,70.52,80,4,4.76,2020-09-11 23:58:09
572,Bushenyi,UG,-0.59,30.21,61.84,81,28,2.24,2020-09-11 23:58:09
573,Taoudenni,ML,22.68,-3.98,100.17,15,47,7.56,2020-09-11 23:58:09
574,Butembo,CD,0.15,29.28,57.07,100,6,1.5,2020-09-11 23:58:09
575,Granville,AU,-33.83,151.02,66.2,55,0,11.41,2020-09-11 23:58:10
576,Yatou,CN,37.15,122.38,68.41,89,87,14.12,2020-09-11 23:58:10
577,Buribay,RU,51.96,58.16,56.75,62,86,6.82,2020-09-11 23:58:10
578,Sagaing,MM,21.88,95.98,80.6,83,40,9.17,2020-09-11 23:58:10
579,Kinston,US,35.26,-77.58,75.2,94,1,4.68,2020-09-11 23:58:10
580,Bowen,AU,-20.02,148.23,71.6,64,90,17.22,2020-09-11 23:58:11
581,Homer,US,59.64,-151.55,57.2,50,1,4.7,2020-09-11 23:58:11
582,Iringa,TZ,-7.77,35.7,62.6,67,5,9.78,2020-09-11 23:58:11
583,Labrea,BR,-7.26,-64.8,80.08,69,83,4.45,2020-09-11 23:58:11
584,Jilib,SO,0.49,42.79,74.34,85,80,5.5,2020-09-11 23:58:11
585,Lazaro Cardenas,MX,17.96,-102.2,83.59,80,91,4.5,2020-09-11 23:58:12
586,Sola,VU,-13.88,167.55,79.12,81,34,17.45,2020-09-11 23:58:12
587,Buchanan,LR,5.88,-10.05,75.38,89,95,4.59,2020-09-11 23:58:12
588,Alice Springs,AU,-23.7,133.88,77.0,22,0,9.17,2020-09-11 23:58:12
589,Monopoli,IT,40.96,17.29,72.0,100,75,5.82,2020-09-11 23:58:13
590,Suntar,RU,62.14,117.63,50.72,78,100,2.46,2020-09-11 23:58:13
591,Ust-Tsilma,RU,65.44,52.15,46.11,90,100,10.02,2020-09-11 23:58:13
592,Soyo,AO,-6.13,12.37,73.36,87,54,7.54,2020-09-11 23:58:13
593,Urusha,RU,54.05,122.9,60.37,83,19,2.15,2020-09-11 23:58:13
594,Roma,US,43.21,-75.46,60.8,59,1,8.05,2020-09-11 23:58:14
595,Warri,NG,5.52,5.75,76.51,89,100,3.89,2020-09-11 23:58:14
596,Guiratinga,BR,-16.35,-53.76,78.6,21,0,7.02,2020-09-11 23:58:14
597,Bontang,ID,0.13,117.5,77.29,84,100,3.27,2020-09-11 23:58:14
598,Merauke,ID,-8.47,140.33,80.6,68,5,12.59,2020-09-11 23:55:09
599,Chizhou,CN,30.66,117.48,73.42,80,99,2.01,2020-09-11 23:58:15
600,Brekstad,NO,63.69,9.67,51.01,87,75,4.7,2020-09-11 23:58:15
601,Superior,US,46.72,-92.1,57.2,67,90,8.05,2020-09-11 23:58:15
602,Rabo De Peixe,PT,37.8,-25.58,69.8,83,20,10.29,2020-09-11 23:58:15
603,Axim,GH,4.87,-2.24,74.97,90,53,9.4,2020-09-11 23:58:15
604,Manono,CD,-7.3,27.42,76.53,30,50,1.32,2020-09-11 23:58:16
605,Marang,MY,5.21,103.21,78.8,94,20,4.7,2020-09-11 23:58:16
606,Kaka,TM,37.35,59.61,60.55,41,0,1.92,2020-09-11 23:58:16
607,Ahuimanu,US,21.44,-157.84,89.6,62,40,10.29,2020-09-11 23:58:16
608,Kongolo,CD,-5.38,27.0,81.84,46,98,5.68,2020-09-11 23:58:17
609,Awash,ET,8.98,40.17,74.8,61,74,8.68,2020-09-11 23:58:17
610,Luanda,AO,-8.84,13.23,71.6,88,40,3.36,2020-09-11 23:55:04
611,Dhidhdhoo,MV,6.88,73.1,81.68,79,56,15.32,2020-09-11 23:58:17
612,La Asuncion,VE,11.03,-63.86,93.2,52,12,6.93,2020-09-11 23:58:17
613,Tagusao,PH,9.19,117.81,83.17,72,99,2.8,2020-09-11 23:58:17
614,Santa Marta De Tormes,ES,40.95,-5.63,64.0,82,75,5.68,2020-09-11 23:58:18
615,Angouleme,FR,45.65,0.15,60.8,87,0,2.71,2020-09-11 23:58:18
616,Lachhmangarh,IN,27.82,75.03,83.5,42,0,7.29,2020-09-11 23:58:18
617,Santa Rosa Del Sur,CO,7.96,-74.05,72.5,97,80,3.24,2020-09-11 23:58:18
618,Katherine,AU,-14.47,132.27,80.6,44,74,1.12,2020-09-11 23:58:19
619,Alexandria,EG,31.22,29.96,80.6,74,40,5.82,2020-09-11 23:58:19
620,Vao,NC,-22.67,167.48,67.87,67,97,17.22,2020-09-11 23:58:19
621,Acapulco,MX,16.86,-99.89,86.0,70,75,3.38,2020-09-11 23:53:52
622,Buraydah,SA,26.33,43.98,82.4,24,0,2.24,2020-09-11 23:55:55
623,Byron Bay,AU,-28.65,153.62,68.0,52,61,14.99,2020-09-11 23:58:20
624,Puerto Ayacucho,VE,5.66,-67.62,80.6,74,40,3.44,2020-09-11 23:58:20
625,Ban Dung,TH,17.7,103.26,75.99,92,100,2.51,2020-09-11 23:58:20
626,Vila,PT,42.03,-8.16,64.99,75,28,3.0,2020-09-11 23:58:20
627,Navahrudak,BY,53.6,25.83,50.52,75,50,5.55,2020-09-11 23:58:21
628,Zeven,DE,53.3,9.28,53.01,66,8,5.93,2020-09-11 23:58:21
629,Aitape,PG,-3.14,142.35,86.52,59,8,4.54,2020-09-11 23:58:21
630,Pisz,PL,53.63,21.81,51.8,93,20,2.24,2020-09-11 23:58:21
631,Nouadhibou,MR,20.93,-17.03,82.4,58,2,19.46,2020-09-11 23:58:22
632,Mokhsogollokh,RU,61.47,128.92,54.63,83,87,1.86,2020-09-11 23:58:22
633,Ulaangom,MN,49.98,92.07,40.77,66,3,4.45,2020-09-11 23:58:22
634,Laguna,US,38.42,-121.42,86.0,26,90,6.93,2020-09-11 23:58:22
635,Kankon,IN,15.02,74.02,78.39,88,100,5.03,2020-09-11 23:58:22
636,Den Helder,NL,52.96,4.76,62.6,77,75,11.41,2020-09-11 23:58:23
637,Ciudad Bolivar,VE,8.12,-63.55,83.61,67,75,4.23,2020-09-11 23:58:23
638,Nangwa,TZ,-4.47,35.45,51.78,97,71,3.96,2020-09-11 23:58:23
639,Pilar,BR,-9.6,-35.96,73.4,78,20,3.36,2020-09-11 23:58:23
640,Kirakira,SB,-10.45,161.92,83.35,75,6,7.54,2020-09-11 23:58:24
641,Madison Heights,US,42.49,-83.11,64.4,55,1,4.7,2020-09-11 23:58:24
642,Zaykovo,RU,57.56,62.76,52.59,97,100,6.15,2020-09-11 23:58:24
643,Djambala,CG,-2.54,14.75,69.15,90,89,3.83,2020-09-11 23:58:24
644,Zermatt,CH,46.02,7.75,66.2,100,20,3.36,2020-09-11 23:58:24
645,Chardara,KZ,41.25,67.97,64.76,42,0,9.28,2020-09-11 23:58:25
646,Nevelsk,RU,46.67,141.86,59.0,77,20,6.71,2020-09-11 23:58:25
647,Curumani,CO,9.2,-73.54,78.91,85,70,2.04,2020-09-11 23:58:25
648,Kununurra,AU,-15.77,128.73,82.4,78,40,9.17,2020-09-11 23:58:25
649,Marsa Matruh,EG,31.35,27.25,77.0,65,0,5.12,2020-09-11 23:58:26
650,Cayenne,GF,4.93,-52.33,80.6,83,50,6.93,2020-09-11 23:58:26
651,Aswan,EG,24.09,32.91,85.19,18,0,8.12,2020-09-11 23:58:26
652,Liverpool,GB,53.41,-2.98,57.2,93,75,11.41,2020-09-11 23:54:39
653,Rockhampton,AU,-23.38,150.5,71.6,53,75,17.22,2020-09-11 23:58:26
654,Ingham,US,42.6,-84.38,63.0,67,1,7.25,2020-09-11 23:58:26
655,Yaan,NG,7.38,8.57,72.77,96,75,4.92,2020-09-11 23:58:27
656,Cap Malheureux,MU,-19.98,57.61,70.0,81,36,5.01,2020-09-11 23:58:27
657,Kysyl-Syr,RU,63.9,122.76,51.17,74,100,2.98,2020-09-11 23:58:27
658,Pimenta Bueno,BR,-11.67,-61.19,84.81,32,19,2.42,2020-09-11 23:54:17
659,Kibuye,RW,-2.06,29.35,68.34,58,85,2.06,2020-09-11 23:58:28
660,Cochrane,CA,51.18,-114.47,82.4,18,20,13.87,2020-09-11 23:58:28
661,Mbour,SN,14.42,-16.96,78.8,88,20,5.82,2020-09-11 23:58:28
662,Acarau,BR,-2.89,-40.12,78.13,79,73,17.98,2020-09-11 23:58:28
663,Smithers,CA,54.78,-127.17,69.8,40,75,6.93,2020-09-11 23:58:28
664,Alyangula,AU,-13.85,136.42,80.6,51,74,8.05,2020-09-11 23:58:29
